id,city_name,lat,long_1,country_id
1,Berlin,52.520008,13.404954,1
2,Belgrade,44.787197,20.457273,2
3,Zagreb,45.815399,15.966568,3
4,"New York",40.730610,-73.935242,4
5,"Los Angeles",34.052235,-118.243683,4
6,Warsaw,52.237049,21.017532,5
